[
    {
        "name": "Karepiro Bay",
        "coords": {
            "lat": "-36.657076",
            "long": "174.735537"
        }
    },
    {
        "name": "Long Bay",
        "coords": {
            "lat": "-36.683099",
            "long": "174.753561"
        }
    },
    {
        "name": "Winstones Cove",
        "coords": {
            "lat": "-36.699697",
            "long": "174.756694"
        }
    },
    {
        "name": "Waiake Beach",
        "coords": {
            "lat": "-36.702834",
            "long": "174.752982"
        }
    },
    {
        "name": "Torbay",
        "coords": {
            "lat": "-36.707754",
            "long": "174.753368"
        }
    },
    {
        "name": "Browns Bay",
        "coords": {
            "lat": "-36.714153",
            "long": "174.750621"
        }
    },
    {
        "name": "Rothesay Bay",
        "coords": {
            "lat": "-36.721828",
            "long": "174.752220"
        }
    },
    {
        "name": "Murrays Bay",
        "coords": {
            "lat": "-36.732699",
            "long": "174.754350"
        }
    },
    {
        "name": "Mairangi Bay",
        "coords": {
            "lat": "-36.739578",
            "long": "174.758170"
        }
    },
    {
        "name": "Campbells Bay",
        "coords": {
            "lat": "-36.745493",
            "long": "174.762805"
        }
    },
    {
        "name": "Castor Bay",
        "coords": {
            "lat": "-36.761413",
            "long": "174.768898"
        }
    },
    {
        "name": "Milford",
        "coords": {
            "lat": "-36.767670",
            "long": "174.770572"
        }
    },
    {
        "name": "Thorne Bay",
        "coords": {
            "lat": "-36.777745",
            "long": "174.777256"
        }
    },
    {
        "name": "Takapuna Beach",
        "coords": {
            "lat": "-36.790110",
            "long": "174.778812"
        }
    },
    {
        "name": "St Leonards Beach",
        "coords": {
            "lat": "-36.799045",
            "long": "174.790661"
        }
    },
    {
        "name": "Narrow Neck Beach",
        "coords": {
            "lat": "-36.811072",
            "long": "174.800489"
        }
    },
    {
        "name": "Cheltenham Beach",
        "coords": {
            "lat": "-36.822409",
            "long": "174.809372"
        }
    },
    {
        "name": "Torpedo Bay",
        "coords": {
            "lat": "-36.829692",
            "long": "174.807355"
        }
    },
    {
        "name": "Duders Beach",
        "coords": {
            "lat": "-36.830619",
            "long": "174.804265"
        }
    },
    {
        "name": "Devonport Beach",
        "coords": {
            "lat": "-36.832440",
            "long": "174.798815"
        }
    },
    {
        "name": "Stanley Bay",
        "coords": {
            "lat": "-36.828009",
            "long": "174.779632"
        }
    },
    {
        "name": "Ngataringa Bay",
        "coords": {
            "lat": "-36.820898",
            "long": "174.776886"
        }
    },
    {
        "name": "Shoal Bay",
        "coords": {
            "lat": "-36.811072",
            "long": "174.765470"
        }
    },
    {
        "name": "Little Shoal Bay",
        "coords": {
            "lat": "-36.821619",
            "long": "174.742210"
        }
    },
    {
        "name": "Chelsea Bay",
        "coords": {
            "lat": "-36.821860",
            "long": "174.727705"
        }
    }
]
